{"type":"FeatureCollection","name":"mumbai_landmarks","features":[{"type":"Feature","properties":{"name":"Bombay High Court","area":"South Mumbai","category":"landmark","type":"heritage building","bmc_ward":"A"},"geometry":{"type":"Point","coordinates":[72.8296,18.9297]}},{"type":"Feature","properties":{"name":"Chhatrapati Shivaji Terminus","area":"South Mumbai","category":"landmark","type":"heritage station","bmc_ward":"A"},"geometry":{"type":"Point","coordinates":[72.83552,18.93986]}},{"type":"Feature","properties":{"name":"Colaba Causeway","area":"South Mumbai","category":"landmark","type":"market street","bmc_ward":"A"},"geometry":{"type":"Point","coordinates":[72.83176,18.92347]}},{"type":"Feature","properties":{"name":"Crawford Market","area":"South Mumbai","category":"landmark","type":"market","bmc_ward":"A"},"geometry":{"type":"Point","coordinates":[72.83451,18.94735]}},{"type":"Feature","properties":{"name":"Flora Fountain","area":"South Mumbai","category":"landmark","type":"monument","bmc_ward":"A"},"geometry":{"type":"Point","coordinates":[72.8315,18.9325]}},{"type":"Feature","properties":{"name":"Gateway of India","area":"South Mumbai","category":"landmark","type":"monument","bmc_ward":"A"},"geometry":{"type":"Point","coordinates":[72.83457,18.92197]}},{"type":"Feature","properties":{"name":"Girgaum Chowpatty","area":"South Mumbai","category":"nature","type":"beach","bmc_ward":"D"},"geometry":{"type":"Point","coordinates":[72.81288,18.95436]}},{"type":"Feature","properties":{"name":"Marine Drive","area":"South Mumbai","category":"landmark","type":"promenade","bmc_ward":"A"},"geometry":{"type":"Point","coordinates":[72.82411,18.94006]}},{"type":"Feature","properties":{"name":"Nariman Point","area":"South Mumbai","category":"area","type":"business district","bmc_ward":"A"},"geometry":{"type":"Point","coordinates":[72.82359,18.92709]}},{"type":"Feature","properties":{"name":"Prince of Wales Museum","area":"South Mumbai","category":"landmark","type":"museum","bmc_ward":"A"},"geometry":{"type":"Point","coordinates":[72.83259,18.92688]}},{"type":"Feature","properties":{"name":"Taj Mahal Palace Hotel","area":"South Mumbai","category":"landmark","type":"hotel","bmc_ward":"A"},"geometry":{"type":"Point","coordinates":[72.83328,18.92178]}},{"type":"Feature","properties":{"name":"Wankhede Stadium","area":"South Mumbai","category":"landmark","type":"stadium","bmc_ward":"A"},"geometry":{"type":"Point","coordinates":[72.82574,18.93855]}},{"type":"Feature","properties":{"name":"Antilia","area":"Marine Drive","category":"landmark","type":"building","bmc_ward":"D"},"geometry":{"type":"Point","coordinates":[72.80958,18.96806]}},{"type":"Feature","properties":{"name":"Banganga Tank","area":"Marine Drive","category":"landmark","type":"heritage site","bmc_ward":"D"},"geometry":{"type":"Point","coordinates":[72.7943,18.9447]}},{"type":"Feature","properties":{"name":"Hanging Gardens","area":"Marine Drive","category":"nature","type":"garden","bmc_ward":"D"},"geometry":{"type":"Point","coordinates":[72.8049,18.95669]}},{"type":"Feature","properties":{"name":"Mahalaxmi Temple","area":"Marine Drive","category":"landmark","type":"temple","bmc_ward":"D"},"geometry":{"type":"Point","coordinates":[72.8082,18.9773]}},{"type":"Feature","properties":{"name":"Byculla Zoo","area":"Byculla","category":"landmark","type":"zoo","bmc_ward":"E"},"geometry":{"type":"Point","coordinates":[72.8339,18.9793]}},{"type":"Feature","properties":{"name":"Dr Bhau Daji Lad Museum","area":"Byculla","category":"landmark","type":"museum","bmc_ward":"E"},"geometry":{"type":"Point","coordinates":[72.83479,18.9791]}},{"type":"Feature","properties":{"name":"Sewri Fort","area":"Parel","category":"landmark","type":"fort","bmc_ward":"F/S"},"geometry":{"type":"Point","coordinates":[72.86017,19.00053]}},{"type":"Feature","properties":{"name":"Bandra-Worli Sea Link","area":"Worli","category":"landmark","type":"bridge","bmc_ward":null},"geometry":{"type":"Point","coordinates":[72.81565,19.03083]}},{"type":"Feature","properties":{"name":"Haji Ali Dargah","area":"Worli","category":"landmark","type":"dargah","bmc_ward":"G/S"},"geometry":{"type":"Point","coordinates":[72.80899,18.98282]}},{"type":"Feature","properties":{"name":"Mahalaxmi Racecourse","area":"Worli","category":"landmark","type":"racecourse","bmc_ward":"G/S"},"geometry":{"type":"Point","coordinates":[72.8206,18.9852]}},{"type":"Feature","properties":{"name":"Nehru Planetarium","area":"Worli","category":"landmark","type":"science centre","bmc_ward":"G/S"},"geometry":{"type":"Point","coordinates":[72.821,18.9838]}},{"type":"Feature","properties":{"name":"Siddhivinayak Temple","area":"Worli","category":"landmark","type":"temple","bmc_ward":"G/N"},"geometry":{"type":"Point","coordinates":[72.8302,19.0169]}},{"type":"Feature","properties":{"name":"Worli Sea Face","area":"Worli","category":"landmark","type":"promenade","bmc_ward":"G/S"},"geometry":{"type":"Point","coordinates":[72.81151,19.00106]}},{"type":"Feature","properties":{"name":"Chaitya Bhoomi","area":"Dadar","category":"landmark","type":"memorial","bmc_ward":null},"geometry":{"type":"Point","coordinates":[72.8341,19.027]}},{"type":"Feature","properties":{"name":"Dharavi","area":"Dadar","category":"area","type":"neighbourhood","bmc_ward":"G/N"},"geometry":{"type":"Point","coordinates":[72.85862,19.04446]}},{"type":"Feature","properties":{"name":"Mahim Fort","area":"Dadar","category":"landmark","type":"fort","bmc_ward":"G/N"},"geometry":{"type":"Point","coordinates":[72.83813,19.04201]}},{"type":"Feature","properties":{"name":"Shivaji Park","area":"Dadar","category":"landmark","type":"park","bmc_ward":"G/N"},"geometry":{"type":"Point","coordinates":[72.8384,19.02728]}},{"type":"Feature","properties":{"name":"Bandra Fort","area":"Bandra","category":"landmark","type":"fort","bmc_ward":"H/W"},"geometry":{"type":"Point","coordinates":[72.81838,19.04186]}},{"type":"Feature","properties":{"name":"Bandra Kurla Complex","area":"Bandra","category":"area","type":"business district","bmc_ward":"H/E"},"geometry":{"type":"Point","coordinates":[72.86133,19.05927]}},{"type":"Feature","properties":{"name":"Bandstand Promenade","area":"Bandra","category":"landmark","type":"promenade","bmc_ward":"H/W"},"geometry":{"type":"Point","coordinates":[72.82141,19.0505]}},{"type":"Feature","properties":{"name":"Carter Road","area":"Bandra","category":"landmark","type":"promenade","bmc_ward":"H/W"},"geometry":{"type":"Point","coordinates":[72.82286,19.06889]}},{"type":"Feature","properties":{"name":"Mount Mary Church","area":"Bandra","category":"landmark","type":"church","bmc_ward":"H/W"},"geometry":{"type":"Point","coordinates":[72.82264,19.04658]}},{"type":"Feature","properties":{"name":"Gilbert Hill","area":"Andheri","category":"nature","type":"monolith","bmc_ward":"K/W"},"geometry":{"type":"Point","coordinates":[72.83985,19.12058]}},{"type":"Feature","properties":{"name":"ISKCON Juhu","area":"Andheri","category":"landmark","type":"temple","bmc_ward":"K/W"},"geometry":{"type":"Point","coordinates":[72.82667,19.11307]}},{"type":"Feature","properties":{"name":"Juhu Beach","area":"Andheri","category":"nature","type":"beach","bmc_ward":null},"geometry":{"type":"Point","coordinates":[72.82468,19.10265]}},{"type":"Feature","properties":{"name":"Mahakali Caves","area":"Andheri","category":"landmark","type":"caves","bmc_ward":"K/E"},"geometry":{"type":"Point","coordinates":[72.87382,19.13061]}},{"type":"Feature","properties":{"name":"Mumbai Airport (T2)","area":"Andheri","category":"landmark","type":"airport","bmc_ward":"K/E"},"geometry":{"type":"Point","coordinates":[72.86658,19.10293]}},{"type":"Feature","properties":{"name":"Versova Beach","area":"Andheri","category":"nature","type":"beach","bmc_ward":"K/W"},"geometry":{"type":"Point","coordinates":[72.81333,19.13001]}},{"type":"Feature","properties":{"name":"IIT Bombay","area":"Powai","category":"landmark","type":"university","bmc_ward":"S"},"geometry":{"type":"Point","coordinates":[72.91497,19.13262]}},{"type":"Feature","properties":{"name":"Powai Lake","area":"Powai","category":"nature","type":"lake","bmc_ward":"S"},"geometry":{"type":"Point","coordinates":[72.90621,19.12772]}},{"type":"Feature","properties":{"name":"Global Vipassana Pagoda","area":"North Suburbs","category":"landmark","type":"pagoda","bmc_ward":"R/C"},"geometry":{"type":"Point","coordinates":[72.8069,19.2325]}},{"type":"Feature","properties":{"name":"Gorai Beach","area":"North Suburbs","category":"nature","type":"beach","bmc_ward":"R/C"},"geometry":{"type":"Point","coordinates":[72.78306,19.25696]}},{"type":"Feature","properties":{"name":"Kanheri Caves","area":"North Suburbs","category":"landmark","type":"caves","bmc_ward":"R/C"},"geometry":{"type":"Point","coordinates":[72.88326,19.22495]}},{"type":"Feature","properties":{"name":"Mandapeshwar Caves","area":"North Suburbs","category":"landmark","type":"caves","bmc_ward":"R/S"},"geometry":{"type":"Point","coordinates":[72.8478,19.2047]}},{"type":"Feature","properties":{"name":"Sanjay Gandhi National Park","area":"North Suburbs","category":"nature","type":"national park","bmc_ward":"T"},"geometry":{"type":"Point","coordinates":[72.91633,19.20932]}}]}